code,nombre,original_address,tipo,lat,lon,formatted,name,housenumber,street,postcode,city,county,state,state_code,country,country_code,confidence,confidence_city_level,confidence_street_level,confidence_building_level,attribution,attribution_license,attribution_url
ccj,Centro cultural Carlos Jurado,"16 de Septiembre 1, Zona Centro, 29200 San Cristóbal de las Casas, Chis.",cc,16.737761,-92.63878,"16 De Septiembre 1, 29200 San Cristóbal de Las Casas, CHP, México",,1,16 De Septiembre,29200,San Cristóbal de Las Casas,San Cristóbal de las Casas,Chiapas,CHP,México,mx,1,1,1,1,© OpenAddresses contributors,BSD-3-Clause License,
laen,"La Enseñanza Casa de la Ciudad ","Belisario Domínguez 13, Zona Centro, 29200 San Cristóbal de las Casas, Chis.",cc,16.7385973,-92.6354788,"La Enseñanza, Casa De La Ciudad, Belisarío Domínguez 13, 29200 San Cristóbal, CHP, México","La Enseñanza, Casa De La Ciudad",13,Belisarío Domínguez,29200,San Cristóbal,San Cristóbal de las Casas,Chiapas,CHP,México,mx,1,1,1,1,© OpenStreetMap contributors,Open Database License,https://www.openstreetmap.org/copyright
ga,Galeria Arteria,,"Galeria ",,,,,,,,,,,,,,,,,,,,
brujo,"Cerro Brujo ","Real de Guadalupe, Barrio de Guadalupe, 29200 San Cristóbal de las Casas, Chis.","Galeria ",16.735377,-92.63873,"29200 San Cristóbal, CHP, México",,,,29200,San Cristóbal,San Cristóbal de las Casas,Chiapas,CHP,México,mx,0.5,1,,,© OpenStreetMap contributors,Open Database License,https://www.openstreetmap.org/copyright
,"Museo de los Altos de Chiapas ","Av 20 de Noviembre s/n, Barrio del Cerrillo, 29200 San Cristóbal de las Casas, Chis.",Museo,16.735377,-92.63873,"29200 San Cristóbal, CHP, México",,,,29200,San Cristóbal,San Cristóbal de las Casas,Chiapas,CHP,México,mx,0.5,1,,,© OpenStreetMap contributors,Open Database License,https://www.openstreetmap.org/copyright
,El Caminante,,Restaurant,,,,,,,,,,,,,,,,,,,,
,"Galeria Taxcalate ","Av Diego Dugelay 36A, El Cerrillo, 29220 San Cristóbal de las Casas, Chis.","Galeria ",16.7423472,-92.63283548842051,"Avenida Diego Dugelay 46B;46D, 29220 San Cristóbal, CHP, México",,46B;46D,Avenida Diego Dugelay,29220,San Cristóbal,San Cristóbal de las Casas,Chiapas,CHP,México,mx,0.6,1,1,0.6,© OpenStreetMap contributors,Open Database License,https://www.openstreetmap.org/copyright
,"Sabi ","C. María Adelina Flores 57, Barrio de Guadalupe, 29230 San Cristóbal de las Casas, Chis.",Restaurant,16.738349,-92.632437,"María Adelina Flores 55, 29230 San Cristóbal de Las Casas, CHP, México",,55,María Adelina Flores,29230,San Cristóbal de Las Casas,San Cristóbal de las Casas,Chiapas,CHP,México,mx,0.7,1,1,0.7,© OpenStreetMap contributors,Open Database License,https://www.openstreetmap.org/copyright
,MUY,"Nicolás Ruiz, Barrio de Guadalupe, 29230 San Cristóbal de las Casas, Chis.","Galeria ",16.73848968533333,-92.62951487733334,"29230, CHP, México",,,,29230,,San Cristóbal de las Casas,Chiapas,CHP,México,mx,0.5,1,,,© OpenStreetMap contributors,Open Database License,https://www.openstreetmap.org/copyright
